,stop_id,train,stop_name,stop_lat,stop_lon,node_id,master_node_id
0,101,1,Van Cortlandt Park-242 St,40.889248,-73.898583,101_1,Van Cortlandt Park-242 St_0
1,103,1,238 St,40.884667,-73.90087,103_1,238 St_0
2,104,1,231 St,40.878856,-73.904834,104_1,231 St_0
3,106,1,Marble Hill-225 St,40.874561,-73.909831,106_1,Marble Hill-225 St_0
4,107,1,215 St,40.869444,-73.915279,107_1,215 St_0
5,108,1,207 St,40.864621,-73.918822,108_1,207 St_0
6,109,1,Dyckman St,40.860531,-73.925536,109_1,Dyckman St_0
7,110,1,191 St,40.855225,-73.929412,110_1,191 St_0
8,111,1,181 St,40.849505,-73.933596,111_1,181 St_0
9,112,1,168 St-Washington Hts,40.840556,-73.940133,112_1,168 St-Washington Hts_0
10,113,1,157 St,40.834041,-73.94489,113_1,157 St_0
11,114,1,145 St,40.826551,-73.95036,114_1,145 St_1
12,115,1,137 St-City College,40.822008,-73.953676,115_1,137 St-City College_0
13,116,1,125 St,40.815581,-73.958372,116_1,125 St_0
14,117,1,116 St-Columbia University,40.807722,-73.96411,117_1,116 St-Columbia University_0
15,118,1,Cathedral Pkwy (110 St),40.803967,-73.966847,118_1,Cathedral Pkwy (110 St)_0
16,119,1,103 St,40.799446,-73.968379,119_1,103 St_0
17,120,1,96 St,40.793919,-73.972323,120_1,96 St_0
18,121,1,86 St,40.788644,-73.976218,121_1,86 St_0
19,122,1,79 St,40.783934,-73.979917,122_1,79 St_0
20,123,1,72 St,40.778453,-73.98197,123_1,72 St_0
21,124,1,66 St-Lincoln Center,40.77344,-73.982209,124_1,66 St-Lincoln Center_0
22,125,1,59 St-Columbus Circle,40.768247,-73.981929,125_1,59 St-Columbus Circle_0
23,126,1,50 St,40.761728,-73.983849,126_1,50 St_0
24,127,1,Times Sq-42 St,40.75529,-73.987495,127_1,Times Sq-42 St_0
25,128,1,34 St-Penn Station,40.750373,-73.991057,128_1,34 St-Penn Station_0
26,129,1,28 St,40.747215,-73.993365,129_1,28 St_0
27,130,1,23 St,40.744081,-73.995657,130_1,23 St_0
28,131,1,18 St,40.74104,-73.997871,131_1,18 St_0
29,132,1,14 St,40.737826,-74.000201,132_1,14 St_0
30,133,1,Christopher St-Sheridan Sq,40.733422,-74.002906,133_1,Christopher St-Sheridan Sq_0
31,134,1,Houston St,40.728251,-74.005367,134_1,Houston St_0
32,135,1,Canal St,40.722854,-74.006277,135_1,Canal St_1
33,136,1,Franklin St,40.719318,-74.006886,136_1,Franklin St_0
34,137,1,Chambers St,40.715478,-74.009266,137_1,Chambers St_0
35,138,1,WTC Cortlandt,40.711835,-74.012188,138_1,WTC Cortlandt_0
36,139,1,Rector St,40.707513,-74.013783,139_1,Rector St_0
37,142,1,South Ferry,40.702068,-74.013664,142_1,South Ferry_0
38,120,2,96 St,40.793919,-73.972323,120_2,96 St_0
39,121,2,86 St,40.788644,-73.976218,121_2,86 St_0
40,122,2,79 St,40.783934,-73.979917,122_2,79 St_0
41,123,2,72 St,40.778453,-73.98197,123_2,72 St_0
42,124,2,66 St-Lincoln Center,40.77344,-73.982209,124_2,66 St-Lincoln Center_0
43,125,2,59 St-Columbus Circle,40.768247,-73.981929,125_2,59 St-Columbus Circle_0
44,126,2,50 St,40.761728,-73.983849,126_2,50 St_0
45,127,2,Times Sq-42 St,40.75529,-73.987495,127_2,Times Sq-42 St_0
46,128,2,34 St-Penn Station,40.750373,-73.991057,128_2,34 St-Penn Station_0
47,129,2,28 St,40.747215,-73.993365,129_2,28 St_0
48,130,2,23 St,40.744081,-73.995657,130_2,23 St_0
49,131,2,18 St,40.74104,-73.997871,131_2,18 St_0
50,132,2,14 St,40.737826,-74.000201,132_2,14 St_0
51,133,2,Christopher St-Sheridan Sq,40.733422,-74.002906,133_2,Christopher St-Sheridan Sq_0
52,134,2,Houston St,40.728251,-74.005367,134_2,Houston St_0
53,135,2,Canal St,40.722854,-74.006277,135_2,Canal St_1
54,136,2,Franklin St,40.719318,-74.006886,136_2,Franklin St_0
55,137,2,Chambers St,40.715478,-74.009266,137_2,Chambers St_0
56,201,2,Wakefield-241 St,40.903125,-73.85062,201_2,Wakefield-241 St_0
57,204,2,Nereid Av,40.898379,-73.854376,204_2,Nereid Av_0
58,205,2,233 St,40.893193,-73.857473,205_2,233 St_0
59,206,2,225 St,40.888022,-73.860341,206_2,225 St_0
60,207,2,219 St,40.883895,-73.862633,207_2,219 St_0
61,208,2,Gun Hill Rd,40.87785,-73.866256,208_2,Gun Hill Rd_0
62,209,2,Burke Av,40.871356,-73.867164,209_2,Burke Av_0
63,210,2,Allerton Av,40.865462,-73.867352,210_2,Allerton Av_0
64,211,2,Pelham Pkwy,40.857192,-73.867615,211_2,Pelham Pkwy_0
65,212,2,Bronx Park East,40.848828,-73.868457,212_2,Bronx Park East_0
66,213,2,E 180 St,40.841894,-73.873488,213_2,E 180 St_0
67,214,2,West Farms Sq-E Tremont Av,40.840295,-73.880049,214_2,West Farms Sq-E Tremont Av_0
68,215,2,174 St,40.837288,-73.887734,215_2,174 St_0
69,216,2,Freeman St,40.829993,-73.891865,216_2,Freeman St_0
70,217,2,Simpson St,40.824073,-73.893064,217_2,Simpson St_0
71,218,2,Intervale Av,40.822181,-73.896736,218_2,Intervale Av_0
72,219,2,Prospect Av,40.819585,-73.90177,219_2,Prospect Av_0
73,220,2,Jackson Av,40.81649,-73.907807,220_2,Jackson Av_0
74,221,2,3 Av-149 St,40.816109,-73.917757,221_2,3 Av-149 St_0
75,222,2,149 St-Grand Concourse,40.81841,-73.926718,222_2,149 St-Grand Concourse_0
76,224,2,135 St,40.814229,-73.94077,224_2,135 St_0
77,225,2,125 St,40.807754,-73.945495,225_2,125 St_1
78,226,2,116 St,40.802098,-73.949625,226_2,116 St_0
79,227,2,Central Park North (110 St),40.799075,-73.951822,227_2,Central Park North (110 St)_0
80,228,2,Park Place,40.713051,-74.008811,228_2,Park Place_0
81,229,2,Fulton St,40.709416,-74.006571,229_2,Fulton St_0
82,230,2,Wall St,40.706821,-74.0091,230_2,Wall St_0
83,231,2,Clark St,40.697466,-73.993086,231_2,Clark St_0
84,232,2,Borough Hall,40.693219,-73.989998,232_2,Borough Hall_0
85,233,2,Hoyt St,40.690545,-73.985065,233_2,Hoyt St_0
86,234,2,Nevins St,40.688246,-73.980492,234_2,Nevins St_0
87,235,2,Atlantic Av-Barclays Ctr,40.684359,-73.977666,235_2,Atlantic Av-Barclays Ctr_0
88,236,2,Bergen St,40.680829,-73.975098,236_2,Bergen St_0
89,237,2,Grand Army Plaza,40.675235,-73.971046,237_2,Grand Army Plaza_0
90,238,2,Eastern Pkwy-Brooklyn Museum,40.671987,-73.964375,238_2,Eastern Pkwy-Brooklyn Museum_0
91,239,2,Franklin Av-Medgar Evers College,40.670682,-73.958131,239_2,Franklin Av-Medgar Evers College_0
92,241,2,President St-Medgar Evers College,40.667883,-73.950683,241_2,President St-Medgar Evers College_0
93,242,2,Sterling St,40.662742,-73.95085,242_2,Sterling St_0
94,243,2,Winthrop St,40.656652,-73.9502,243_2,Winthrop St_0
95,244,2,Church Av,40.650843,-73.949575,244_2,Church Av_0
96,245,2,Beverly Rd,40.645098,-73.948959,245_2,Beverly Rd_0
97,246,2,Newkirk Av-Little Haiti,40.639967,-73.948411,246_2,Newkirk Av-Little Haiti_0
98,247,2,Flatbush Av-Brooklyn College,40.632836,-73.947642,247_2,Flatbush Av-Brooklyn College_0
99,248,2,Nostrand Av,40.669847,-73.950466,248_2,Nostrand Av_0
100,249,2,Kingston Av,40.669399,-73.942161,249_2,Kingston Av_0
101,250,2,Crown Hts-Utica Av,40.668897,-73.932942,250_2,Crown Hts-Utica Av_0
102,251,2,Sutter Av-Rutland Rd,40.664717,-73.92261,251_2,Sutter Av-Rutland Rd_0
103,252,2,Saratoga Av,40.661453,-73.916327,252_2,Saratoga Av_0
104,253,2,Rockaway Av,40.662549,-73.908946,253_2,Rockaway Av_0
105,254,2,Junius St,40.663515,-73.902447,254_2,Junius St_0
106,255,2,Pennsylvania Av,40.664635,-73.894895,255_2,Pennsylvania Av_0
107,256,2,Van Siclen Av,40.665449,-73.889395,256_2,Van Siclen Av_0
108,257,2,New Lots Av,40.666235,-73.884079,257_2,New Lots Av_0
109,120,3,96 St,40.793919,-73.972323,120_3,96 St_0
110,123,3,72 St,40.778453,-73.98197,123_3,72 St_0
111,127,3,Times Sq-42 St,40.75529,-73.987495,127_3,Times Sq-42 St_0
112,128,3,34 St-Penn Station,40.750373,-73.991057,128_3,34 St-Penn Station_0
113,132,3,14 St,40.737826,-74.000201,132_3,14 St_0
114,137,3,Chambers St,40.715478,-74.009266,137_3,Chambers St_0
115,224,3,135 St,40.814229,-73.94077,224_3,135 St_0
116,225,3,125 St,40.807754,-73.945495,225_3,125 St_1
117,226,3,116 St,40.802098,-73.949625,226_3,116 St_0
118,227,3,Central Park North (110 St),40.799075,-73.951822,227_3,Central Park North (110 St)_0
119,228,3,Park Place,40.713051,-74.008811,228_3,Park Place_0
120,229,3,Fulton St,40.709416,-74.006571,229_3,Fulton St_0
121,230,3,Wall St,40.706821,-74.0091,230_3,Wall St_0
122,231,3,Clark St,40.697466,-73.993086,231_3,Clark St_0
123,232,3,Borough Hall,40.693219,-73.989998,232_3,Borough Hall_0
124,233,3,Hoyt St,40.690545,-73.985065,233_3,Hoyt St_0
125,234,3,Nevins St,40.688246,-73.980492,234_3,Nevins St_0
126,235,3,Atlantic Av-Barclays Ctr,40.684359,-73.977666,235_3,Atlantic Av-Barclays Ctr_0
127,236,3,Bergen St,40.680829,-73.975098,236_3,Bergen St_0
128,237,3,Grand Army Plaza,40.675235,-73.971046,237_3,Grand Army Plaza_0
129,238,3,Eastern Pkwy-Brooklyn Museum,40.671987,-73.964375,238_3,Eastern Pkwy-Brooklyn Museum_0
130,239,3,Franklin Av-Medgar Evers College,40.670682,-73.958131,239_3,Franklin Av-Medgar Evers College_0
131,248,3,Nostrand Av,40.669847,-73.950466,248_3,Nostrand Av_0
132,249,3,Kingston Av,40.669399,-73.942161,249_3,Kingston Av_0
133,250,3,Crown Hts-Utica Av,40.668897,-73.932942,250_3,Crown Hts-Utica Av_0
134,251,3,Sutter Av-Rutland Rd,40.664717,-73.92261,251_3,Sutter Av-Rutland Rd_0
135,252,3,Saratoga Av,40.661453,-73.916327,252_3,Saratoga Av_0
136,253,3,Rockaway Av,40.662549,-73.908946,253_3,Rockaway Av_0
137,254,3,Junius St,40.663515,-73.902447,254_3,Junius St_0
138,255,3,Pennsylvania Av,40.664635,-73.894895,255_3,Pennsylvania Av_0
139,256,3,Van Siclen Av,40.665449,-73.889395,256_3,Van Siclen Av_0
140,257,3,New Lots Av,40.666235,-73.884079,257_3,New Lots Av_0
141,301,3,Harlem-148 St,40.82388,-73.93647,301_3,Harlem-148 St_0
142,302,3,145 St,40.820421,-73.936245,302_3,145 St_2
143,234,4,Nevins St,40.688246,-73.980492,234_4,Nevins St_0
144,235,4,Atlantic Av-Barclays Ctr,40.684359,-73.977666,235_4,Atlantic Av-Barclays Ctr_0
145,236,4,Bergen St,40.680829,-73.975098,236_4,Bergen St_0
146,237,4,Grand Army Plaza,40.675235,-73.971046,237_4,Grand Army Plaza_0
147,238,4,Eastern Pkwy-Brooklyn Museum,40.671987,-73.964375,238_4,Eastern Pkwy-Brooklyn Museum_0
148,239,4,Franklin Av-Medgar Evers College,40.670682,-73.958131,239_4,Franklin Av-Medgar Evers College_0
149,248,4,Nostrand Av,40.669847,-73.950466,248_4,Nostrand Av_0
150,249,4,Kingston Av,40.669399,-73.942161,249_4,Kingston Av_0
151,250,4,Crown Hts-Utica Av,40.668897,-73.932942,250_4,Crown Hts-Utica Av_0
152,251,4,Sutter Av-Rutland Rd,40.664717,-73.92261,251_4,Sutter Av-Rutland Rd_0
153,252,4,Saratoga Av,40.661453,-73.916327,252_4,Saratoga Av_0
154,253,4,Rockaway Av,40.662549,-73.908946,253_4,Rockaway Av_0
155,254,4,Junius St,40.663515,-73.902447,254_4,Junius St_0
156,255,4,Pennsylvania Av,40.664635,-73.894895,255_4,Pennsylvania Av_0
157,256,4,Van Siclen Av,40.665449,-73.889395,256_4,Van Siclen Av_0
158,257,4,New Lots Av,40.666235,-73.884079,257_4,New Lots Av_0
159,401,4,Woodlawn,40.886037,-73.878751,401_4,Woodlawn_0
160,402,4,Mosholu Pkwy,40.87975,-73.884655,402_4,Mosholu Pkwy_0
161,405,4,Bedford Park Blvd-Lehman College,40.873412,-73.890064,405_4,Bedford Park Blvd-Lehman College_0
162,406,4,Kingsbridge Rd,40.86776,-73.897174,406_4,Kingsbridge Rd_0
163,407,4,Fordham Rd,40.862803,-73.901034,407_4,Fordham Rd_0
164,408,4,183 St,40.858407,-73.903879,408_4,183 St_0
165,409,4,Burnside Av,40.853453,-73.907684,409_4,Burnside Av_0
166,410,4,176 St,40.84848,-73.911794,410_4,176 St_0
167,411,4,Mt Eden Av,40.844434,-73.914685,411_4,Mt Eden Av_0
168,412,4,170 St,40.840075,-73.917791,412_4,170 St_0
169,413,4,167 St,40.835537,-73.9214,413_4,167 St_0
170,414,4,161 St-Yankee Stadium,40.827994,-73.925831,414_4,161 St-Yankee Stadium_0
171,415,4,149 St-Grand Concourse,40.818375,-73.927351,415_4,149 St-Grand Concourse_0
172,416,4,138 St-Grand Concourse,40.813224,-73.929849,416_4,138 St-Grand Concourse_0
173,418,4,Fulton St,40.710368,-74.009509,418_4,Fulton St_1
174,419,4,Wall St,40.707557,-74.011862,419_4,Wall St_1
175,420,4,Bowling Green,40.704817,-74.014065,420_4,Bowling Green_0
176,423,4,Borough Hall,40.692404,-73.990151,423_4,Borough Hall_0
177,621,4,125 St,40.804138,-73.937594,621_4,125 St_2
178,622,4,116 St,40.798629,-73.941617,622_4,116 St_1
179,623,4,110 St,40.79502,-73.94425,623_4,110 St_0
180,624,4,103 St,40.7906,-73.947478,624_4,103 St_1
181,625,4,96 St,40.785672,-73.95107,625_4,96 St_1
182,626,4,86 St,40.779492,-73.955589,626_4,86 St_1
183,627,4,77 St,40.77362,-73.959874,627_4,77 St_0
184,628,4,68 St-Hunter College,40.768141,-73.96387,628_4,68 St-Hunter College_0
185,629,4,59 St,40.762526,-73.967967,629_4,59 St_0
186,630,4,51 St,40.757107,-73.97192,630_4,51 St_0
187,631,4,Grand Central-42 St,40.751776,-73.976848,631_4,Grand Central-42 St_0
188,632,4,33 St,40.746081,-73.982076,632_4,33 St_0
189,633,4,28 St,40.74307,-73.984264,633_4,28 St_1
190,634,4,23 St,40.739864,-73.986599,634_4,23 St_1
191,635,4,14 St-Union Sq,40.734673,-73.989951,635_4,14 St-Union Sq_0
192,636,4,Astor Pl,40.730054,-73.99107,636_4,Astor Pl_0
193,637,4,Bleecker St,40.725915,-73.994659,637_4,Bleecker St_0
194,638,4,Spring St,40.722301,-73.997141,638_4,Spring St_0
195,639,4,Canal St,40.718803,-74.000193,639_4,Canal St_0
196,640,4,Brooklyn Bridge-City Hall,40.713065,-74.004131,640_4,Brooklyn Bridge-City Hall_0
197,120,5,96 St,40.793919,-73.972323,120_5,96 St_0
198,123,5,72 St,40.778453,-73.98197,123_5,72 St_0
199,127,5,Times Sq-42 St,40.75529,-73.987495,127_5,Times Sq-42 St_0
200,128,5,34 St-Penn Station,40.750373,-73.991057,128_5,34 St-Penn Station_0
201,132,5,14 St,40.737826,-74.000201,132_5,14 St_0
202,137,5,Chambers St,40.715478,-74.009266,137_5,Chambers St_0
203,138,5,WTC Cortlandt,40.711835,-74.012188,138_5,WTC Cortlandt_0
204,139,5,Rector St,40.707513,-74.013783,139_5,Rector St_0
205,204,5,Nereid Av,40.898379,-73.854376,204_5,Nereid Av_0
206,205,5,233 St,40.893193,-73.857473,205_5,233 St_0
207,206,5,225 St,40.888022,-73.860341,206_5,225 St_0
208,207,5,219 St,40.883895,-73.862633,207_5,219 St_0
209,208,5,Gun Hill Rd,40.87785,-73.866256,208_5,Gun Hill Rd_0
210,209,5,Burke Av,40.871356,-73.867164,209_5,Burke Av_0
211,210,5,Allerton Av,40.865462,-73.867352,210_5,Allerton Av_0
212,211,5,Pelham Pkwy,40.857192,-73.867615,211_5,Pelham Pkwy_0
213,212,5,Bronx Park East,40.848828,-73.868457,212_5,Bronx Park East_0
214,213,5,E 180 St,40.841894,-73.873488,213_5,E 180 St_0
215,214,5,West Farms Sq-E Tremont Av,40.840295,-73.880049,214_5,West Farms Sq-E Tremont Av_0
216,215,5,174 St,40.837288,-73.887734,215_5,174 St_0
217,216,5,Freeman St,40.829993,-73.891865,216_5,Freeman St_0
218,217,5,Simpson St,40.824073,-73.893064,217_5,Simpson St_0
219,218,5,Intervale Av,40.822181,-73.896736,218_5,Intervale Av_0
220,219,5,Prospect Av,40.819585,-73.90177,219_5,Prospect Av_0
221,220,5,Jackson Av,40.81649,-73.907807,220_5,Jackson Av_0
222,221,5,3 Av-149 St,40.816109,-73.917757,221_5,3 Av-149 St_0
223,222,5,149 St-Grand Concourse,40.81841,-73.926718,222_5,149 St-Grand Concourse_0
224,224,5,135 St,40.814229,-73.94077,224_5,135 St_0
225,225,5,125 St,40.807754,-73.945495,225_5,125 St_1
226,226,5,116 St,40.802098,-73.949625,226_5,116 St_0
227,227,5,Central Park North (110 St),40.799075,-73.951822,227_5,Central Park North (110 St)_0
228,228,5,Park Place,40.713051,-74.008811,228_5,Park Place_0
229,229,5,Fulton St,40.709416,-74.006571,229_5,Fulton St_0
230,230,5,Wall St,40.706821,-74.0091,230_5,Wall St_0
231,231,5,Clark St,40.697466,-73.993086,231_5,Clark St_0
232,232,5,Borough Hall,40.693219,-73.989998,232_5,Borough Hall_0
233,233,5,Hoyt St,40.690545,-73.985065,233_5,Hoyt St_0
234,234,5,Nevins St,40.688246,-73.980492,234_5,Nevins St_0
235,235,5,Atlantic Av-Barclays Ctr,40.684359,-73.977666,235_5,Atlantic Av-Barclays Ctr_0
236,239,5,Franklin Av-Medgar Evers College,40.670682,-73.958131,239_5,Franklin Av-Medgar Evers College_0
237,241,5,President St-Medgar Evers College,40.667883,-73.950683,241_5,President St-Medgar Evers College_0
238,242,5,Sterling St,40.662742,-73.95085,242_5,Sterling St_0
239,243,5,Winthrop St,40.656652,-73.9502,243_5,Winthrop St_0
240,244,5,Church Av,40.650843,-73.949575,244_5,Church Av_0
241,245,5,Beverly Rd,40.645098,-73.948959,245_5,Beverly Rd_0
242,246,5,Newkirk Av-Little Haiti,40.639967,-73.948411,246_5,Newkirk Av-Little Haiti_0
243,247,5,Flatbush Av-Brooklyn College,40.632836,-73.947642,247_5,Flatbush Av-Brooklyn College_0
244,248,5,Nostrand Av,40.669847,-73.950466,248_5,Nostrand Av_0
245,249,5,Kingston Av,40.669399,-73.942161,249_5,Kingston Av_0
246,250,5,Crown Hts-Utica Av,40.668897,-73.932942,250_5,Crown Hts-Utica Av_0
247,251,5,Sutter Av-Rutland Rd,40.664717,-73.92261,251_5,Sutter Av-Rutland Rd_0
248,252,5,Saratoga Av,40.661453,-73.916327,252_5,Saratoga Av_0
249,253,5,Rockaway Av,40.662549,-73.908946,253_5,Rockaway Av_0
250,254,5,Junius St,40.663515,-73.902447,254_5,Junius St_0
251,255,5,Pennsylvania Av,40.664635,-73.894895,255_5,Pennsylvania Av_0
252,256,5,Van Siclen Av,40.665449,-73.889395,256_5,Van Siclen Av_0
253,257,5,New Lots Av,40.666235,-73.884079,257_5,New Lots Av_0
254,416,5,138 St-Grand Concourse,40.813224,-73.929849,416_5,138 St-Grand Concourse_0
255,418,5,Fulton St,40.710368,-74.009509,418_5,Fulton St_1
256,419,5,Wall St,40.707557,-74.011862,419_5,Wall St_1
257,420,5,Bowling Green,40.704817,-74.014065,420_5,Bowling Green_0
258,423,5,Borough Hall,40.692404,-73.990151,423_5,Borough Hall_0
259,501,5,Eastchester-Dyre Av,40.8883,-73.830834,501_5,Eastchester-Dyre Av_0
260,502,5,Baychester Av,40.878663,-73.838591,502_5,Baychester Av_0
261,503,5,Gun Hill Rd,40.869526,-73.846384,503_5,Gun Hill Rd_1
262,504,5,Pelham Pkwy,40.858985,-73.855359,504_5,Pelham Pkwy_1
263,505,5,Morris Park,40.854364,-73.860495,505_5,Morris Park_0
264,621,5,125 St,40.804138,-73.937594,621_5,125 St_2
265,626,5,86 St,40.779492,-73.955589,626_5,86 St_1
266,629,5,59 St,40.762526,-73.967967,629_5,59 St_0
267,631,5,Grand Central-42 St,40.751776,-73.976848,631_5,Grand Central-42 St_0
268,635,5,14 St-Union Sq,40.734673,-73.989951,635_5,14 St-Union Sq_0
269,640,5,Brooklyn Bridge-City Hall,40.713065,-74.004131,640_5,Brooklyn Bridge-City Hall_0
270,601,6,Pelham Bay Park,40.852462,-73.828121,601_6,Pelham Bay Park_0
271,602,6,Buhre Av,40.84681,-73.832569,602_6,Buhre Av_0
272,603,6,Middletown Rd,40.843863,-73.836322,603_6,Middletown Rd_0
273,604,6,Westchester Sq-E Tremont Av,40.839892,-73.842952,604_6,Westchester Sq-E Tremont Av_0
274,606,6,Zerega Av,40.836488,-73.847036,606_6,Zerega Av_0
275,607,6,Castle Hill Av,40.834255,-73.851222,607_6,Castle Hill Av_0
276,608,6,Parkchester,40.833226,-73.860816,608_6,Parkchester_0
277,609,6,St Lawrence Av,40.831509,-73.867618,609_6,St Lawrence Av_0
278,610,6,Morrison Av-Soundview,40.829521,-73.874516,610_6,Morrison Av-Soundview_0
279,611,6,Elder Av,40.828584,-73.879159,611_6,Elder Av_0
280,612,6,Whitlock Av,40.826525,-73.886283,612_6,Whitlock Av_0
281,613,6,Hunts Point Av,40.820948,-73.890549,613_6,Hunts Point Av_0
282,614,6,Longwood Av,40.816104,-73.896435,614_6,Longwood Av_0
283,615,6,E 149 St,40.812118,-73.904098,615_6,E 149 St_0
284,616,6,E 143 St-St Mary's St,40.808719,-73.907657,616_6,E 143 St-St Mary's St_0
285,617,6,Cypress Av,40.805368,-73.914042,617_6,Cypress Av_0
286,618,6,Brook Av,40.807566,-73.91924,618_6,Brook Av_0
287,619,6,3 Av-138 St,40.810476,-73.926138,619_6,3 Av-138 St_0
288,621,6,125 St,40.804138,-73.937594,621_6,125 St_2
289,622,6,116 St,40.798629,-73.941617,622_6,116 St_1
290,623,6,110 St,40.79502,-73.94425,623_6,110 St_0
291,624,6,103 St,40.7906,-73.947478,624_6,103 St_1
292,625,6,96 St,40.785672,-73.95107,625_6,96 St_1
293,626,6,86 St,40.779492,-73.955589,626_6,86 St_1
294,627,6,77 St,40.77362,-73.959874,627_6,77 St_0
295,628,6,68 St-Hunter College,40.768141,-73.96387,628_6,68 St-Hunter College_0
296,629,6,59 St,40.762526,-73.967967,629_6,59 St_0
297,630,6,51 St,40.757107,-73.97192,630_6,51 St_0
298,631,6,Grand Central-42 St,40.751776,-73.976848,631_6,Grand Central-42 St_0
299,632,6,33 St,40.746081,-73.982076,632_6,33 St_0
300,633,6,28 St,40.74307,-73.984264,633_6,28 St_1
301,634,6,23 St,40.739864,-73.986599,634_6,23 St_1
302,635,6,14 St-Union Sq,40.734673,-73.989951,635_6,14 St-Union Sq_0
303,636,6,Astor Pl,40.730054,-73.99107,636_6,Astor Pl_0
304,637,6,Bleecker St,40.725915,-73.994659,637_6,Bleecker St_0
305,638,6,Spring St,40.722301,-73.997141,638_6,Spring St_0
306,639,6,Canal St,40.718803,-74.000193,639_6,Canal St_0
307,640,6,Brooklyn Bridge-City Hall,40.713065,-74.004131,640_6,Brooklyn Bridge-City Hall_0
308,701,7,Flushing-Main St,40.7596,-73.83003,701_7,Flushing-Main St_0
309,702,7,Mets-Willets Point,40.754622,-73.845625,702_7,Mets-Willets Point_0
310,705,7,111 St,40.75173,-73.855334,705_7,111 St_0
311,706,7,103 St-Corona Plaza,40.749865,-73.8627,706_7,103 St-Corona Plaza_0
312,707,7,Junction Blvd,40.749145,-73.869527,707_7,Junction Blvd_0
313,708,7,90 St-Elmhurst Av,40.748408,-73.876613,708_7,90 St-Elmhurst Av_0
314,709,7,82 St-Jackson Hts,40.747659,-73.883697,709_7,82 St-Jackson Hts_0
315,710,7,74 St-Broadway,40.746848,-73.891394,710_7,74 St-Broadway_0
316,711,7,69 St,40.746325,-73.896403,711_7,69 St_0
317,712,7,61 St-Woodside,40.74563,-73.902984,712_7,61 St-Woodside_0
318,713,7,52 St,40.744149,-73.912549,713_7,52 St_0
319,714,7,46 St-Bliss St,40.743132,-73.918435,714_7,46 St-Bliss St_0
320,715,7,40 St-Lowery St,40.743781,-73.924016,715_7,40 St-Lowery St_0
321,716,7,33 St-Rawson St,40.744587,-73.930997,716_7,33 St-Rawson St_0
322,718,7,Queensboro Plaza,40.750582,-73.940202,718_7,Queensboro Plaza_0
323,719,7,Court Sq,40.747023,-73.945264,719_7,Court Sq_0
324,720,7,Hunters Point Av,40.742216,-73.948916,720_7,Hunters Point Av_0
325,721,7,Vernon Blvd-Jackson Av,40.742626,-73.953581,721_7,Vernon Blvd-Jackson Av_0
326,723,7,Grand Central-42 St,40.751431,-73.976041,723_7,Grand Central-42 St_0
327,724,7,5 Av,40.753821,-73.981963,724_7,5 Av_0
328,725,7,Times Sq-42 St,40.755477,-73.987691,725_7,Times Sq-42 St_0
329,726,7,34 St-Hudson Yards,40.755882,-74.00191,726_7,34 St-Hudson Yards_0
330,A02,A,Inwood-207 St,40.868072,-73.919899,A02_A,Inwood-207 St_0
331,A03,A,Dyckman St,40.865491,-73.927271,A03_A,Dyckman St_1
332,A05,A,190 St,40.859022,-73.93418,A05_A,190 St_0
333,A06,A,181 St,40.851695,-73.937969,A06_A,181 St_1
334,A07,A,175 St,40.847391,-73.939704,A07_A,175 St_0
335,A09,A,168 St,40.840719,-73.939561,A09_A,168 St_0
336,A10,A,163 St-Amsterdam Av,40.836013,-73.939892,A10_A,163 St-Amsterdam Av_0
337,A11,A,155 St,40.830518,-73.941514,A11_A,155 St_0
338,A12,A,145 St,40.824783,-73.944216,A12_A,145 St_0
339,A14,A,135 St,40.817894,-73.947649,A14_A,135 St_1
340,A15,A,125 St,40.811109,-73.952343,A15_A,125 St_3
341,A16,A,116 St,40.805085,-73.954882,A16_A,116 St_2
342,A17,A,Cathedral Pkwy (110 St),40.800603,-73.958161,A17_A,Cathedral Pkwy (110 St)_1
343,A18,A,103 St,40.796092,-73.961454,A18_A,103 St_2
344,A19,A,96 St,40.791642,-73.964696,A19_A,96 St_2
345,A20,A,86 St,40.785868,-73.968916,A20_A,86 St_2
346,A21,A,81 St-Museum of Natural History,40.781433,-73.972143,A21_A,81 St-Museum of Natural History_0
347,A22,A,72 St,40.775594,-73.97641,A22_A,72 St_1
348,A24,A,59 St-Columbus Circle,40.768296,-73.981736,A24_A,59 St-Columbus Circle_0
349,A25,A,50 St,40.762456,-73.985984,A25_A,50 St_1
350,A27,A,42 St-Port Authority Bus Terminal,40.757308,-73.989735,A27_A,42 St-Port Authority Bus Terminal_0
351,A28,A,34 St-Penn Station,40.752287,-73.993391,A28_A,34 St-Penn Station_1
352,A30,A,23 St,40.745906,-73.998041,A30_A,23 St_2
353,A31,A,14 St,40.740893,-74.00169,A31_A,14 St_1
354,A32,A,W 4 St-Wash Sq,40.732338,-74.000495,A32_A,W 4 St-Wash Sq_0
355,A33,A,Spring St,40.726227,-74.003739,A33_A,Spring St_1
356,A34,A,Canal St,40.720824,-74.005229,A34_A,Canal St_2
357,A36,A,Chambers St,40.714111,-74.008585,A36_A,Chambers St_1
358,A38,A,Fulton St,40.710197,-74.007691,A38_A,Fulton St_1
359,A40,A,High St,40.699337,-73.990531,A40_A,High St_0
360,A41,A,Jay St-MetroTech,40.692338,-73.987342,A41_A,Jay St-MetroTech_0
361,A42,A,Hoyt-Schermerhorn Sts,40.688484,-73.985001,A42_A,Hoyt-Schermerhorn Sts_0
362,A43,A,Lafayette Av,40.686113,-73.973946,A43_A,Lafayette Av_0
363,A44,A,Clinton-Washington Avs,40.683263,-73.965838,A44_A,Clinton-Washington Avs_0
364,A45,A,Franklin Av,40.68138,-73.956848,A45_A,Franklin Av_0
365,A46,A,Nostrand Av,40.680438,-73.950426,A46_A,Nostrand Av_1
366,A47,A,Kingston-Throop Avs,40.679921,-73.940858,A47_A,Kingston-Throop Avs_0
367,A48,A,Utica Av,40.679364,-73.930729,A48_A,Utica Av_0
368,A49,A,Ralph Av,40.678822,-73.920786,A49_A,Ralph Av_0
369,A50,A,Rockaway Av,40.67834,-73.911946,A50_A,Rockaway Av_1
370,A51,A,Broadway Junction,40.678334,-73.905316,A51_A,Broadway Junction_0
371,A52,A,Liberty Av,40.674542,-73.896548,A52_A,Liberty Av_0
372,A53,A,Van Siclen Av,40.67271,-73.890358,A53_A,Van Siclen Av_1
373,A54,A,Shepherd Av,40.67413,-73.88075,A54_A,Shepherd Av_0
374,A55,A,Euclid Av,40.675377,-73.872106,A55_A,Euclid Av_0
375,A57,A,Grant Av,40.677044,-73.86505,A57_A,Grant Av_0
376,A59,A,80 St,40.679371,-73.858992,A59_A,80 St_0
377,A60,A,88 St,40.679843,-73.85147,A60_A,88 St_0
378,A61,A,Rockaway Blvd,40.680429,-73.843853,A61_A,Rockaway Blvd_0
379,A63,A,104 St,40.681711,-73.837683,A63_A,104 St_0
380,A64,A,111 St,40.684331,-73.832163,A64_A,111 St_1
381,A65,A,Ozone Park-Lefferts Blvd,40.685951,-73.825798,A65_A,Ozone Park-Lefferts Blvd_0
382,H01,A,Aqueduct Racetrack,40.668234,-73.834058,H01_A,Aqueduct Racetrack_0
383,H02,A,Aqueduct-N Conduit Av,40.668234,-73.834058,H02_A,Aqueduct-N Conduit Av_0
384,H03,A,Howard Beach-JFK Airport,40.660476,-73.830301,H03_A,Howard Beach-JFK Airport_0
385,H04,A,Broad Channel,40.608382,-73.815925,H04_A,Broad Channel_0
386,H06,A,Beach 67 St,40.590927,-73.796924,H06_A,Beach 67 St_0
387,H07,A,Beach 60 St,40.592374,-73.788522,H07_A,Beach 60 St_0
388,H08,A,Beach 44 St,40.592943,-73.776013,H08_A,Beach 44 St_0
389,H09,A,Beach 36 St,40.595398,-73.768175,H09_A,Beach 36 St_0
390,H10,A,Beach 25 St,40.600066,-73.761353,H10_A,Beach 25 St_0
391,H11,A,Far Rockaway-Mott Av,40.603995,-73.755405,H11_A,Far Rockaway-Mott Av_0
392,H12,A,Beach 90 St,40.588034,-73.813641,H12_A,Beach 90 St_0
393,H13,A,Beach 98 St,40.585307,-73.820558,H13_A,Beach 98 St_0
394,H14,A,Beach 105 St,40.583209,-73.827559,H14_A,Beach 105 St_0
395,H15,A,Rockaway Park-Beach 116 St,40.580903,-73.835592,H15_A,Rockaway Park-Beach 116 St_0
396,A12,B,145 St,40.824783,-73.944216,A12_B,145 St_0
397,A14,B,135 St,40.817894,-73.947649,A14_B,135 St_1
398,A15,B,125 St,40.811109,-73.952343,A15_B,125 St_3
399,A16,B,116 St,40.805085,-73.954882,A16_B,116 St_2
400,A17,B,Cathedral Pkwy (110 St),40.800603,-73.958161,A17_B,Cathedral Pkwy (110 St)_1
401,A18,B,103 St,40.796092,-73.961454,A18_B,103 St_2
402,A19,B,96 St,40.791642,-73.964696,A19_B,96 St_2
403,A20,B,86 St,40.785868,-73.968916,A20_B,86 St_2
404,A21,B,81 St-Museum of Natural History,40.781433,-73.972143,A21_B,81 St-Museum of Natural History_0
405,A22,B,72 St,40.775594,-73.97641,A22_B,72 St_1
406,A24,B,59 St-Columbus Circle,40.768296,-73.981736,A24_B,59 St-Columbus Circle_0
407,D03,B,Bedford Park Blvd,40.873244,-73.887138,D03_B,Bedford Park Blvd_0
408,D04,B,Kingsbridge Rd,40.866978,-73.893509,D04_B,Kingsbridge Rd_1
409,D05,B,Fordham Rd,40.861296,-73.897749,D05_B,Fordham Rd_1
410,D06,B,182-183 Sts,40.856093,-73.900741,D06_B,182-183 Sts_0
411,D07,B,Tremont Av,40.85041,-73.905227,D07_B,Tremont Av_0
412,D08,B,174-175 Sts,40.8459,-73.910136,D08_B,174-175 Sts_0
413,D09,B,170 St,40.839306,-73.9134,D09_B,170 St_1
414,D10,B,167 St,40.833771,-73.91844,D10_B,167 St_1
415,D11,B,161 St-Yankee Stadium,40.827905,-73.925651,D11_B,161 St-Yankee Stadium_0
416,D12,B,155 St,40.830135,-73.938209,D12_B,155 St_1
417,D13,B,145 St,40.824783,-73.944216,D13_B,145 St_0
418,D14,B,7 Av,40.762862,-73.981637,D14_B,7 Av_0
419,D15,B,47-50 Sts-Rockefeller Ctr,40.758663,-73.981329,D15_B,47-50 Sts-Rockefeller Ctr_0
420,D16,B,42 St-Bryant Pk,40.754222,-73.984569,D16_B,42 St-Bryant Pk_0
421,D17,B,34 St-Herald Sq,40.749719,-73.987823,D17_B,34 St-Herald Sq_0
422,D20,B,W 4 St-Wash Sq,40.732338,-74.000495,D20_B,W 4 St-Wash Sq_0
423,D21,B,Broadway-Lafayette St,40.725297,-73.996204,D21_B,Broadway-Lafayette St_0
424,D22,B,Grand St,40.718267,-73.993753,D22_B,Grand St_0
425,D24,B,Atlantic Av-Barclays Ctr,40.68446,-73.97689,D24_B,Atlantic Av-Barclays Ctr_0
426,D25,B,7 Av,40.67705,-73.972367,D25_B,7 Av_1
427,D26,B,Prospect Park,40.661614,-73.962246,D26_B,Prospect Park_0
428,D27,B,Parkside Av,40.655292,-73.961495,D27_B,Parkside Av_0
429,D28,B,Church Av,40.650527,-73.962982,D28_B,Church Av_1
430,D29,B,Beverley Rd,40.644031,-73.964492,D29_B,Beverley Rd_0
431,D30,B,Cortelyou Rd,40.640927,-73.963891,D30_B,Cortelyou Rd_0
432,D31,B,Newkirk Plaza,40.635082,-73.962793,D31_B,Newkirk Plaza_0
433,D32,B,Avenue H,40.62927,-73.961639,D32_B,Avenue H_0
434,D33,B,Avenue J,40.625039,-73.960803,D33_B,Avenue J_0
435,D34,B,Avenue M,40.617618,-73.959399,D34_B,Avenue M_0
436,D35,B,Kings Hwy,40.60867,-73.957734,D35_B,Kings Hwy_0
437,D37,B,Avenue U,40.5993,-73.955929,D37_B,Avenue U_0
438,D38,B,Neck Rd,40.595246,-73.955161,D38_B,Neck Rd_0
439,D39,B,Sheepshead Bay,40.586896,-73.954155,D39_B,Sheepshead Bay_0
440,D40,B,Brighton Beach,40.577621,-73.961376,D40_B,Brighton Beach_0
441,R30,B,DeKalb Av,40.690635,-73.981824,R30_B,DeKalb Av_0
442,A09,C,168 St,40.840719,-73.939561,A09_C,168 St_0
443,A10,C,163 St-Amsterdam Av,40.836013,-73.939892,A10_C,163 St-Amsterdam Av_0
444,A11,C,155 St,40.830518,-73.941514,A11_C,155 St_0
445,A12,C,145 St,40.824783,-73.944216,A12_C,145 St_0
446,A14,C,135 St,40.817894,-73.947649,A14_C,135 St_1
447,A15,C,125 St,40.811109,-73.952343,A15_C,125 St_3
448,A16,C,116 St,40.805085,-73.954882,A16_C,116 St_2
449,A17,C,Cathedral Pkwy (110 St),40.800603,-73.958161,A17_C,Cathedral Pkwy (110 St)_1
450,A18,C,103 St,40.796092,-73.961454,A18_C,103 St_2
451,A19,C,96 St,40.791642,-73.964696,A19_C,96 St_2
452,A20,C,86 St,40.785868,-73.968916,A20_C,86 St_2
453,A21,C,81 St-Museum of Natural History,40.781433,-73.972143,A21_C,81 St-Museum of Natural History_0
454,A22,C,72 St,40.775594,-73.97641,A22_C,72 St_1
455,A24,C,59 St-Columbus Circle,40.768296,-73.981736,A24_C,59 St-Columbus Circle_0
456,A25,C,50 St,40.762456,-73.985984,A25_C,50 St_1
457,A27,C,42 St-Port Authority Bus Terminal,40.757308,-73.989735,A27_C,42 St-Port Authority Bus Terminal_0
458,A28,C,34 St-Penn Station,40.752287,-73.993391,A28_C,34 St-Penn Station_1
459,A30,C,23 St,40.745906,-73.998041,A30_C,23 St_2
460,A31,C,14 St,40.740893,-74.00169,A31_C,14 St_1
461,A32,C,W 4 St-Wash Sq,40.732338,-74.000495,A32_C,W 4 St-Wash Sq_0
462,A33,C,Spring St,40.726227,-74.003739,A33_C,Spring St_1
463,A34,C,Canal St,40.720824,-74.005229,A34_C,Canal St_2
464,A36,C,Chambers St,40.714111,-74.008585,A36_C,Chambers St_1
465,A38,C,Fulton St,40.710197,-74.007691,A38_C,Fulton St_1
466,A40,C,High St,40.699337,-73.990531,A40_C,High St_0
467,A41,C,Jay St-MetroTech,40.692338,-73.987342,A41_C,Jay St-MetroTech_0
468,A42,C,Hoyt-Schermerhorn Sts,40.688484,-73.985001,A42_C,Hoyt-Schermerhorn Sts_0
469,A43,C,Lafayette Av,40.686113,-73.973946,A43_C,Lafayette Av_0
470,A44,C,Clinton-Washington Avs,40.683263,-73.965838,A44_C,Clinton-Washington Avs_0
471,A45,C,Franklin Av,40.68138,-73.956848,A45_C,Franklin Av_0
472,A46,C,Nostrand Av,40.680438,-73.950426,A46_C,Nostrand Av_1
473,A47,C,Kingston-Throop Avs,40.679921,-73.940858,A47_C,Kingston-Throop Avs_0
474,A48,C,Utica Av,40.679364,-73.930729,A48_C,Utica Av_0
475,A49,C,Ralph Av,40.678822,-73.920786,A49_C,Ralph Av_0
476,A50,C,Rockaway Av,40.67834,-73.911946,A50_C,Rockaway Av_1
477,A51,C,Broadway Junction,40.678334,-73.905316,A51_C,Broadway Junction_0
478,A52,C,Liberty Av,40.674542,-73.896548,A52_C,Liberty Av_0
479,A53,C,Van Siclen Av,40.67271,-73.890358,A53_C,Van Siclen Av_1
480,A54,C,Shepherd Av,40.67413,-73.88075,A54_C,Shepherd Av_0
481,A55,C,Euclid Av,40.675377,-73.872106,A55_C,Euclid Av_0
482,D13,C,145 St,40.824783,-73.944216,D13_C,145 St_0
483,A15,D,125 St,40.811109,-73.952343,A15_D,125 St_3
484,A24,D,59 St-Columbus Circle,40.768296,-73.981736,A24_D,59 St-Columbus Circle_0
485,B12,D,9 Av,40.646292,-73.994324,B12_D,9 Av_0
486,B13,D,Fort Hamilton Pkwy,40.640914,-73.994304,B13_D,Fort Hamilton Pkwy_0
487,B14,D,50 St,40.63626,-73.994791,B14_D,50 St_2
488,B15,D,55 St,40.631435,-73.995476,B15_D,55 St_0
489,B16,D,62 St,40.626472,-73.996895,B16_D,62 St_0
490,B17,D,71 St,40.619589,-73.998864,B17_D,71 St_0
491,B18,D,79 St,40.613501,-74.00061,B18_D,79 St_1
492,B19,D,18 Av,40.607954,-74.001736,B19_D,18 Av_0
493,B20,D,20 Av,40.604556,-73.998168,B20_D,20 Av_0
494,B21,D,Bay Pkwy,40.601875,-73.993728,B21_D,Bay Pkwy_0
495,B22,D,25 Av,40.597704,-73.986829,B22_D,25 Av_0
496,B23,D,Bay 50 St,40.588841,-73.983765,B23_D,Bay 50 St_0
497,D01,D,Norwood-205 St,40.874811,-73.878855,D01_D,Norwood-205 St_0
498,D03,D,Bedford Park Blvd,40.873244,-73.887138,D03_D,Bedford Park Blvd_0
499,D04,D,Kingsbridge Rd,40.866978,-73.893509,D04_D,Kingsbridge Rd_1
500,D05,D,Fordham Rd,40.861296,-73.897749,D05_D,Fordham Rd_1
501,D06,D,182-183 Sts,40.856093,-73.900741,D06_D,182-183 Sts_0
502,D07,D,Tremont Av,40.85041,-73.905227,D07_D,Tremont Av_0
503,D08,D,174-175 Sts,40.8459,-73.910136,D08_D,174-175 Sts_0
504,D09,D,170 St,40.839306,-73.9134,D09_D,170 St_1
505,D10,D,167 St,40.833771,-73.91844,D10_D,167 St_1
506,D11,D,161 St-Yankee Stadium,40.827905,-73.925651,D11_D,161 St-Yankee Stadium_0
507,D12,D,155 St,40.830135,-73.938209,D12_D,155 St_1
508,D13,D,145 St,40.824783,-73.944216,D13_D,145 St_0
509,D14,D,7 Av,40.762862,-73.981637,D14_D,7 Av_0
510,D15,D,47-50 Sts-Rockefeller Ctr,40.758663,-73.981329,D15_D,47-50 Sts-Rockefeller Ctr_0
511,D16,D,42 St-Bryant Pk,40.754222,-73.984569,D16_D,42 St-Bryant Pk_0
512,D17,D,34 St-Herald Sq,40.749719,-73.987823,D17_D,34 St-Herald Sq_0
513,D20,D,W 4 St-Wash Sq,40.732338,-74.000495,D20_D,W 4 St-Wash Sq_0
514,D21,D,Broadway-Lafayette St,40.725297,-73.996204,D21_D,Broadway-Lafayette St_0
515,D22,D,Grand St,40.718267,-73.993753,D22_D,Grand St_0
516,D43,D,Coney Island-Stillwell Av,40.577422,-73.981233,D43_D,Coney Island-Stillwell Av_0
517,R30,D,DeKalb Av,40.690635,-73.981824,R30_D,DeKalb Av_0
518,R31,D,Atlantic Av-Barclays Ctr,40.683666,-73.97881,R31_D,Atlantic Av-Barclays Ctr_0
519,R32,D,Union St,40.677316,-73.98311,R32_D,Union St_0
520,R33,D,4 Av-9 St,40.670847,-73.988302,R33_D,4 Av-9 St_0
521,R34,D,Prospect Av,40.665414,-73.992872,R34_D,Prospect Av_1
522,R35,D,25 St,40.660397,-73.998091,R35_D,25 St_0
523,R36,D,36 St,40.655144,-74.003549,R36_D,36 St_0
524,A25,E,50 St,40.762456,-73.985984,A25_E,50 St_1
525,A27,E,42 St-Port Authority Bus Terminal,40.757308,-73.989735,A27_E,42 St-Port Authority Bus Terminal_0
526,A28,E,34 St-Penn Station,40.752287,-73.993391,A28_E,34 St-Penn Station_1
527,A30,E,23 St,40.745906,-73.998041,A30_E,23 St_2
528,A31,E,14 St,40.740893,-74.00169,A31_E,14 St_1
529,A32,E,W 4 St-Wash Sq,40.732338,-74.000495,A32_E,W 4 St-Wash Sq_0
530,A33,E,Spring St,40.726227,-74.003739,A33_E,Spring St_1
531,A34,E,Canal St,40.720824,-74.005229,A34_E,Canal St_2
532,D14,E,7 Av,40.762862,-73.981637,D14_E,7 Av_0
533,E01,E,World Trade Center,40.712582,-74.009781,E01_E,World Trade Center_0
534,F01,E,Jamaica-179 St,40.712646,-73.783817,F01_E,Jamaica-179 St_0
535,F02,E,169 St,40.71047,-73.793604,F02_E,169 St_0
536,F03,E,Parsons Blvd,40.707564,-73.803326,F03_E,Parsons Blvd_0
537,F04,E,Sutphin Blvd,40.70546,-73.810708,F04_E,Sutphin Blvd_0
538,F05,E,Briarwood,40.709179,-73.820574,F05_E,Briarwood_0
539,F06,E,Kew Gardens-Union Tpke,40.714441,-73.831008,F06_E,Kew Gardens-Union Tpke_0
540,F07,E,75 Av,40.718331,-73.837324,F07_E,75 Av_0
541,F09,E,Court Sq-23 St,40.747846,-73.946,F09_E,Court Sq-23 St_0
542,F11,E,Lexington Av/53 St,40.757552,-73.969055,F11_E,Lexington Av/53 St_0
543,F12,E,5 Av/53 St,40.760167,-73.975224,F12_E,5 Av/53 St_0
544,G05,E,Jamaica Center-Parsons/Archer,40.702147,-73.801109,G05_E,Jamaica Center-Parsons/Archer_0
545,G06,E,Sutphin Blvd-Archer Av-JFK Airport,40.700486,-73.807969,G06_E,Sutphin Blvd-Archer Av-JFK Airport_0
546,G07,E,Jamaica-Van Wyck,40.702566,-73.816859,G07_E,Jamaica-Van Wyck_0
547,G08,E,Forest Hills-71 Av,40.721691,-73.844521,G08_E,Forest Hills-71 Av_0
548,G09,E,67 Av,40.726523,-73.852719,G09_E,67 Av_0
549,G10,E,63 Dr-Rego Park,40.729846,-73.861604,G10_E,63 Dr-Rego Park_0
550,G11,E,Woodhaven Blvd,40.733106,-73.869229,G11_E,Woodhaven Blvd_0
551,G12,E,Grand Av-Newtown,40.737015,-73.877223,G12_E,Grand Av-Newtown_0
552,G13,E,Elmhurst Av,40.742454,-73.882017,G13_E,Elmhurst Av_0
553,G14,E,Jackson Hts-Roosevelt Av,40.746644,-73.891338,G14_E,Jackson Hts-Roosevelt Av_0
554,G15,E,65 St,40.749669,-73.898453,G15_E,65 St_0
555,G16,E,Northern Blvd,40.752885,-73.906006,G16_E,Northern Blvd_0
556,G18,E,46 St,40.756312,-73.913333,G18_E,46 St_0
557,G19,E,Steinway St,40.756879,-73.92074,G19_E,Steinway St_0
558,G20,E,36 St,40.752039,-73.928781,G20_E,36 St_1
559,G21,E,Queens Plaza,40.748973,-73.937243,G21_E,Queens Plaza_0
560,A41,F,Jay St-MetroTech,40.692338,-73.987342,A41_F,Jay St-MetroTech_0
561,B04,F,21 St-Queensbridge,40.754203,-73.942836,B04_F,21 St-Queensbridge_0
562,B06,F,Roosevelt Island,40.759145,-73.95326,B06_F,Roosevelt Island_0
563,B08,F,Lexington Av/63 St,40.764629,-73.966113,B08_F,Lexington Av/63 St_0
564,B10,F,57 St,40.763972,-73.97745,B10_F,57 St_0
565,D15,F,47-50 Sts-Rockefeller Ctr,40.758663,-73.981329,D15_F,47-50 Sts-Rockefeller Ctr_0
566,D16,F,42 St-Bryant Pk,40.754222,-73.984569,D16_F,42 St-Bryant Pk_0
567,D17,F,34 St-Herald Sq,40.749719,-73.987823,D17_F,34 St-Herald Sq_0
568,D18,F,23 St,40.742878,-73.992821,D18_F,23 St_3
569,D19,F,14 St,40.738228,-73.996209,D19_F,14 St_2
570,D20,F,W 4 St-Wash Sq,40.732338,-74.000495,D20_F,W 4 St-Wash Sq_0
571,D21,F,Broadway-Lafayette St,40.725297,-73.996204,D21_F,Broadway-Lafayette St_0
572,D42,F,W 8 St-NY Aquarium,40.576127,-73.975939,D42_F,W 8 St-NY Aquarium_0
573,D43,F,Coney Island-Stillwell Av,40.577422,-73.981233,D43_F,Coney Island-Stillwell Av_0
574,F01,F,Jamaica-179 St,40.712646,-73.783817,F01_F,Jamaica-179 St_0
575,F02,F,169 St,40.71047,-73.793604,F02_F,169 St_0
576,F03,F,Parsons Blvd,40.707564,-73.803326,F03_F,Parsons Blvd_0
577,F04,F,Sutphin Blvd,40.70546,-73.810708,F04_F,Sutphin Blvd_0
578,F05,F,Briarwood,40.709179,-73.820574,F05_F,Briarwood_0
579,F06,F,Kew Gardens-Union Tpke,40.714441,-73.831008,F06_F,Kew Gardens-Union Tpke_0
580,F07,F,75 Av,40.718331,-73.837324,F07_F,75 Av_0
581,F14,F,2 Av,40.723402,-73.989938,F14_F,2 Av_0
582,F15,F,Delancey St-Essex St,40.718611,-73.988114,F15_F,Delancey St-Essex St_0
583,F16,F,East Broadway,40.713715,-73.990173,F16_F,East Broadway_0
584,F18,F,York St,40.701397,-73.986751,F18_F,York St_0
585,F20,F,Bergen St,40.686145,-73.990862,F20_F,Bergen St_1
586,F21,F,Carroll St,40.680303,-73.995048,F21_F,Carroll St_0
587,F22,F,Smith-9 Sts,40.67358,-73.995959,F22_F,Smith-9 Sts_0
588,F23,F,4 Av-9 St,40.670272,-73.989779,F23_F,4 Av-9 St_0
589,F24,F,7 Av,40.666271,-73.980305,F24_F,7 Av_2
590,F25,F,15 St-Prospect Park,40.660365,-73.979493,F25_F,15 St-Prospect Park_0
591,F26,F,Fort Hamilton Pkwy,40.650782,-73.975776,F26_F,Fort Hamilton Pkwy_1
592,F27,F,Church Av,40.644041,-73.979678,F27_F,Church Av_2
593,F29,F,Ditmas Av,40.636119,-73.978172,F29_F,Ditmas Av_0
594,F30,F,18 Av,40.629755,-73.976971,F30_F,18 Av_1
595,F31,F,Avenue I,40.625322,-73.976127,F31_F,Avenue I_0
596,F32,F,Bay Pkwy,40.620769,-73.975264,F32_F,Bay Pkwy_1
597,F33,F,Avenue N,40.61514,-73.974197,F33_F,Avenue N_0
598,F34,F,Avenue P,40.608944,-73.973022,F34_F,Avenue P_0
599,F35,F,Kings Hwy,40.603217,-73.972361,F35_F,Kings Hwy_1
600,F36,F,Avenue U,40.596063,-73.973357,F36_F,Avenue U_1
601,F38,F,Avenue X,40.58962,-73.97425,F38_F,Avenue X_0
602,F39,F,Neptune Av,40.581011,-73.974574,F39_F,Neptune Av_0
603,G08,F,Forest Hills-71 Av,40.721691,-73.844521,G08_F,Forest Hills-71 Av_0
604,G14,F,Jackson Hts-Roosevelt Av,40.746644,-73.891338,G14_F,Jackson Hts-Roosevelt Av_0
605,D26,FS,Prospect Park,40.661614,-73.962246,D26_FS,Prospect Park_0
606,S01,FS,Franklin Av,40.680596,-73.955827,S01_FS,Franklin Av_0
607,S03,FS,Park Pl,40.674772,-73.957624,S03_FS,Park Pl_0
608,S04,FS,Botanic Garden,40.670343,-73.959245,S04_FS,Botanic Garden_0
609,A42,G,Hoyt-Schermerhorn Sts,40.688484,-73.985001,A42_G,Hoyt-Schermerhorn Sts_0
610,F20,G,Bergen St,40.686145,-73.990862,F20_G,Bergen St_1
611,F21,G,Carroll St,40.680303,-73.995048,F21_G,Carroll St_0
612,F22,G,Smith-9 Sts,40.67358,-73.995959,F22_G,Smith-9 Sts_0
613,F23,G,4 Av-9 St,40.670272,-73.989779,F23_G,4 Av-9 St_0
614,F24,G,7 Av,40.666271,-73.980305,F24_G,7 Av_2
615,F25,G,15 St-Prospect Park,40.660365,-73.979493,F25_G,15 St-Prospect Park_0
616,F26,G,Fort Hamilton Pkwy,40.650782,-73.975776,F26_G,Fort Hamilton Pkwy_1
617,F27,G,Church Av,40.644041,-73.979678,F27_G,Church Av_2
618,G22,G,Court Sq,40.746554,-73.943832,G22_G,Court Sq_0
619,G24,G,21 St,40.744065,-73.949724,G24_G,21 St_0
620,G26,G,Greenpoint Av,40.731352,-73.954449,G26_G,Greenpoint Av_0
621,G28,G,Nassau Av,40.724635,-73.951277,G28_G,Nassau Av_0
622,G29,G,Metropolitan Av,40.712792,-73.951418,G29_G,Metropolitan Av_0
623,G30,G,Broadway,40.706092,-73.950308,G30_G,Broadway_0
624,G31,G,Flushing Av,40.700377,-73.950234,G31_G,Flushing Av_0
625,G32,G,Myrtle-Willoughby Avs,40.694568,-73.949046,G32_G,Myrtle-Willoughby Avs_0
626,G33,G,Bedford-Nostrand Avs,40.689627,-73.953522,G33_G,Bedford-Nostrand Avs_0
627,G34,G,Classon Av,40.688873,-73.96007,G34_G,Classon Av_0
628,G35,G,Clinton-Washington Avs,40.688089,-73.966839,G35_G,Clinton-Washington Avs_1
629,G36,G,Fulton St,40.687119,-73.975375,G36_G,Fulton St_2
630,901,GS,Grand Central-42 St,40.752769,-73.979189,901_GS,Grand Central-42 St_1
631,902,GS,Times Sq-42 St,40.755983,-73.986229,902_GS,Times Sq-42 St_0
632,H04,H,Broad Channel,40.608382,-73.815925,H04_H,Broad Channel_0
633,H12,H,Beach 90 St,40.588034,-73.813641,H12_H,Beach 90 St_0
634,H13,H,Beach 98 St,40.585307,-73.820558,H13_H,Beach 98 St_0
635,H14,H,Beach 105 St,40.583209,-73.827559,H14_H,Beach 105 St_0
636,H15,H,Rockaway Park-Beach 116 St,40.580903,-73.835592,H15_H,Rockaway Park-Beach 116 St_0
637,G05,J,Jamaica Center-Parsons/Archer,40.702147,-73.801109,G05_J,Jamaica Center-Parsons/Archer_0
638,G06,J,Sutphin Blvd-Archer Av-JFK Airport,40.700486,-73.807969,G06_J,Sutphin Blvd-Archer Av-JFK Airport_0
639,J12,J,121 St,40.700492,-73.828294,J12_J,121 St_0
640,J13,J,111 St,40.697418,-73.836345,J13_J,111 St_2
641,J14,J,104 St,40.695178,-73.84433,J14_J,104 St_1
642,J15,J,Woodhaven Blvd,40.693879,-73.851576,J15_J,Woodhaven Blvd_1
643,J16,J,85 St-Forest Pkwy,40.692435,-73.86001,J16_J,85 St-Forest Pkwy_0
644,J17,J,75 St-Elderts Ln,40.691324,-73.867139,J17_J,75 St-Elderts Ln_0
645,J19,J,Cypress Hills,40.689941,-73.87255,J19_J,Cypress Hills_0
646,J20,J,Crescent St,40.683194,-73.873785,J20_J,Crescent St_0
647,J21,J,Norwood Av,40.68141,-73.880039,J21_J,Norwood Av_0
648,J22,J,Cleveland St,40.679947,-73.884639,J22_J,Cleveland St_0
649,J23,J,Van Siclen Av,40.678024,-73.891688,J23_J,Van Siclen Av_2
650,J24,J,Alabama Av,40.676992,-73.898654,J24_J,Alabama Av_0
651,J27,J,Broadway Junction,40.679498,-73.904512,J27_J,Broadway Junction_0
652,J28,J,Chauncey St,40.682893,-73.910456,J28_J,Chauncey St_0
653,J29,J,Halsey St,40.68637,-73.916559,J29_J,Halsey St_0
654,J30,J,Gates Av,40.68963,-73.92227,J30_J,Gates Av_0
655,J31,J,Kosciuszko St,40.693342,-73.928814,J31_J,Kosciuszko St_0
656,M11,J,Myrtle Av,40.697207,-73.935657,M11_J,Myrtle Av_0
657,M12,J,Flushing Av,40.70026,-73.941126,M12_J,Flushing Av_1
658,M13,J,Lorimer St,40.703869,-73.947408,M13_J,Lorimer St_0
659,M14,J,Hewes St,40.70687,-73.953431,M14_J,Hewes St_0
660,M16,J,Marcy Av,40.708359,-73.957757,M16_J,Marcy Av_0
661,M18,J,Delancey St-Essex St,40.718315,-73.987437,M18_J,Delancey St-Essex St_0
662,M19,J,Bowery,40.72028,-73.993915,M19_J,Bowery_0
663,M20,J,Canal St,40.718092,-73.999892,M20_J,Canal St_0
664,M21,J,Chambers St,40.713243,-74.003401,M21_J,Chambers St_2
665,M22,J,Fulton St,40.710374,-74.007582,M22_J,Fulton St_0
666,M23,J,Broad St,40.706476,-74.011056,M23_J,Broad St_0
667,J27,L,Broadway Junction,40.679498,-73.904512,J27_L,Broadway Junction_0
668,L01,L,8 Av,40.739777,-74.002578,L01_L,8 Av_0
669,L02,L,6 Av,40.737335,-73.996786,L02_L,6 Av_0
670,L03,L,14 St-Union Sq,40.734789,-73.99073,L03_L,14 St-Union Sq_0
671,L05,L,3 Av,40.732849,-73.986122,L05_L,3 Av_0
672,L06,L,1 Av,40.730953,-73.981628,L06_L,1 Av_0
673,L08,L,Bedford Av,40.717304,-73.956872,L08_L,Bedford Av_0
674,L10,L,Lorimer St,40.714063,-73.950275,L10_L,Lorimer St_1
675,L11,L,Graham Av,40.714565,-73.944053,L11_L,Graham Av_0
676,L12,L,Grand St,40.711926,-73.94067,L12_L,Grand St_1
677,L13,L,Montrose Av,40.707739,-73.93985,L13_L,Montrose Av_0
678,L14,L,Morgan Av,40.706152,-73.933147,L14_L,Morgan Av_0
679,L15,L,Jefferson St,40.706607,-73.922913,L15_L,Jefferson St_0
680,L16,L,DeKalb Av,40.703811,-73.918425,L16_L,DeKalb Av_1
681,L17,L,Myrtle-Wyckoff Avs,40.699814,-73.911586,L17_L,Myrtle-Wyckoff Avs_0
682,L19,L,Halsey St,40.695602,-73.904084,L19_L,Halsey St_1
683,L20,L,Wilson Av,40.688764,-73.904046,L20_L,Wilson Av_0
684,L21,L,Bushwick Av-Aberdeen St,40.682829,-73.905249,L21_L,Bushwick Av-Aberdeen St_0
685,L22,L,Broadway Junction,40.678856,-73.90324,L22_L,Broadway Junction_0
686,L24,L,Atlantic Av,40.675345,-73.903097,L24_L,Atlantic Av_0
687,L25,L,Sutter Av,40.669367,-73.901975,L25_L,Sutter Av_0
688,L26,L,Livonia Av,40.664038,-73.900571,L26_L,Livonia Av_0
689,L27,L,New Lots Av,40.658733,-73.899232,L27_L,New Lots Av_1
690,L28,L,East 105 St,40.650573,-73.899485,L28_L,East 105 St_0
691,L29,L,Canarsie-Rockaway Pkwy,40.646654,-73.90185,L29_L,Canarsie-Rockaway Pkwy_0
692,D15,M,47-50 Sts-Rockefeller Ctr,40.758663,-73.981329,D15_M,47-50 Sts-Rockefeller Ctr_0
693,D16,M,42 St-Bryant Pk,40.754222,-73.984569,D16_M,42 St-Bryant Pk_0
694,D17,M,34 St-Herald Sq,40.749719,-73.987823,D17_M,34 St-Herald Sq_0
695,D18,M,23 St,40.742878,-73.992821,D18_M,23 St_3
696,D19,M,14 St,40.738228,-73.996209,D19_M,14 St_2
697,D20,M,W 4 St-Wash Sq,40.732338,-74.000495,D20_M,W 4 St-Wash Sq_0
698,D21,M,Broadway-Lafayette St,40.725297,-73.996204,D21_M,Broadway-Lafayette St_0
699,F09,M,Court Sq-23 St,40.747846,-73.946,F09_M,Court Sq-23 St_0
700,F11,M,Lexington Av/53 St,40.757552,-73.969055,F11_M,Lexington Av/53 St_0
701,F12,M,5 Av/53 St,40.760167,-73.975224,F12_M,5 Av/53 St_0
702,G08,M,Forest Hills-71 Av,40.721691,-73.844521,G08_M,Forest Hills-71 Av_0
703,G09,M,67 Av,40.726523,-73.852719,G09_M,67 Av_0
704,G10,M,63 Dr-Rego Park,40.729846,-73.861604,G10_M,63 Dr-Rego Park_0
705,G11,M,Woodhaven Blvd,40.733106,-73.869229,G11_M,Woodhaven Blvd_0
706,G12,M,Grand Av-Newtown,40.737015,-73.877223,G12_M,Grand Av-Newtown_0
707,G13,M,Elmhurst Av,40.742454,-73.882017,G13_M,Elmhurst Av_0
708,G14,M,Jackson Hts-Roosevelt Av,40.746644,-73.891338,G14_M,Jackson Hts-Roosevelt Av_0
709,G15,M,65 St,40.749669,-73.898453,G15_M,65 St_0
710,G16,M,Northern Blvd,40.752885,-73.906006,G16_M,Northern Blvd_0
711,G18,M,46 St,40.756312,-73.913333,G18_M,46 St_0
712,G19,M,Steinway St,40.756879,-73.92074,G19_M,Steinway St_0
713,G20,M,36 St,40.752039,-73.928781,G20_M,36 St_1
714,G21,M,Queens Plaza,40.748973,-73.937243,G21_M,Queens Plaza_0
715,M01,M,Middle Village-Metropolitan Av,40.711396,-73.889601,M01_M,Middle Village-Metropolitan Av_0
716,M04,M,Fresh Pond Rd,40.706186,-73.895877,M04_M,Fresh Pond Rd_0
717,M05,M,Forest Av,40.704423,-73.903077,M05_M,Forest Av_0
718,M06,M,Seneca Av,40.702762,-73.90774,M06_M,Seneca Av_0
719,M08,M,Myrtle-Wyckoff Avs,40.69943,-73.912385,M08_M,Myrtle-Wyckoff Avs_0
720,M09,M,Knickerbocker Av,40.698664,-73.919711,M09_M,Knickerbocker Av_0
721,M10,M,Central Av,40.697857,-73.927397,M10_M,Central Av_0
722,M11,M,Myrtle Av,40.697207,-73.935657,M11_M,Myrtle Av_0
723,M12,M,Flushing Av,40.70026,-73.941126,M12_M,Flushing Av_1
724,M13,M,Lorimer St,40.703869,-73.947408,M13_M,Lorimer St_0
725,M14,M,Hewes St,40.70687,-73.953431,M14_M,Hewes St_0
726,M16,M,Marcy Av,40.708359,-73.957757,M16_M,Marcy Av_0
727,M18,M,Delancey St-Essex St,40.718315,-73.987437,M18_M,Delancey St-Essex St_0
728,B08,N,Lexington Av/63 St,40.764629,-73.966113,B08_N,Lexington Av/63 St_0
729,B12,N,9 Av,40.646292,-73.994324,B12_N,9 Av_0
730,B13,N,Fort Hamilton Pkwy,40.640914,-73.994304,B13_N,Fort Hamilton Pkwy_0
731,B14,N,50 St,40.63626,-73.994791,B14_N,50 St_2
732,B15,N,55 St,40.631435,-73.995476,B15_N,55 St_0
733,B16,N,62 St,40.626472,-73.996895,B16_N,62 St_0
734,B17,N,71 St,40.619589,-73.998864,B17_N,71 St_0
735,B18,N,79 St,40.613501,-74.00061,B18_N,79 St_1
736,B19,N,18 Av,40.607954,-74.001736,B19_N,18 Av_0
737,B20,N,20 Av,40.604556,-73.998168,B20_N,20 Av_0
738,B21,N,Bay Pkwy,40.601875,-73.993728,B21_N,Bay Pkwy_0
739,B22,N,25 Av,40.597704,-73.986829,B22_N,25 Av_0
740,B23,N,Bay 50 St,40.588841,-73.983765,B23_N,Bay 50 St_0
741,D43,N,Coney Island-Stillwell Av,40.577422,-73.981233,D43_N,Coney Island-Stillwell Av_0
742,N02,N,8 Av,40.635064,-74.011719,N02_N,8 Av_1
743,N03,N,Fort Hamilton Pkwy,40.631386,-74.005351,N03_N,Fort Hamilton Pkwy_2
744,N04,N,New Utrecht Av,40.624842,-73.996353,N04_N,New Utrecht Av_0
745,N05,N,18 Av,40.620671,-73.990414,N05_N,18 Av_2
746,N06,N,20 Av,40.61741,-73.985026,N06_N,20 Av_1
747,N07,N,Bay Pkwy,40.611815,-73.981848,N07_N,Bay Pkwy_2
748,N08,N,Kings Hwy,40.603923,-73.980353,N08_N,Kings Hwy_2
749,N09,N,Avenue U,40.597473,-73.979137,N09_N,Avenue U_2
750,N10,N,86 St,40.592721,-73.97823,N10_N,86 St_3
751,Q01,N,Canal St,40.718383,-74.00046,Q01_N,Canal St_0
752,Q03,N,72 St,40.768799,-73.958424,Q03_N,72 St_2
753,Q04,N,86 St,40.777891,-73.951787,Q04_N,86 St_4
754,Q05,N,96 St,40.784318,-73.947152,Q05_N,96 St_3
755,R01,N,Astoria-Ditmars Blvd,40.775036,-73.912034,R01_N,Astoria-Ditmars Blvd_0
756,R03,N,Astoria Blvd,40.770258,-73.917843,R03_N,Astoria Blvd_0
757,R04,N,30 Av,40.766779,-73.921479,R04_N,30 Av_0
758,R05,N,Broadway,40.76182,-73.925508,R05_N,Broadway_1
759,R06,N,36 Av,40.756804,-73.929575,R06_N,36 Av_0
760,R08,N,39 Av-Dutch Kills,40.752882,-73.932755,R08_N,39 Av-Dutch Kills_0
761,R09,N,Queensboro Plaza,40.750582,-73.940202,R09_N,Queensboro Plaza_0
762,R11,N,Lexington Av/59 St,40.76266,-73.967258,R11_N,Lexington Av/59 St_0
763,R13,N,5 Av/59 St,40.764811,-73.973347,R13_N,5 Av/59 St_0
764,R14,N,57 St-7 Av,40.764664,-73.980658,R14_N,57 St-7 Av_0
765,R15,N,49 St,40.759901,-73.984139,R15_N,49 St_0
766,R16,N,Times Sq-42 St,40.754672,-73.986754,R16_N,Times Sq-42 St_0
767,R17,N,34 St-Herald Sq,40.749567,-73.98795,R17_N,34 St-Herald Sq_0
768,R18,N,28 St,40.745494,-73.988691,R18_N,28 St_2
769,R19,N,23 St,40.741303,-73.989344,R19_N,23 St_4
770,R20,N,14 St-Union Sq,40.735736,-73.990568,R20_N,14 St-Union Sq_0
771,R21,N,8 St-NYU,40.730328,-73.992629,R21_N,8 St-NYU_0
772,R22,N,Prince St,40.724329,-73.997702,R22_N,Prince St_0
773,R23,N,Canal St,40.719527,-74.001775,R23_N,Canal St_0
774,R24,N,City Hall,40.713282,-74.006978,R24_N,City Hall_0
775,R25,N,Cortlandt St,40.710668,-74.011029,R25_N,Cortlandt St_0
776,R26,N,Rector St,40.70722,-74.013342,R26_N,Rector St_0
777,R27,N,Whitehall St-South Ferry,40.703087,-74.012994,R27_N,Whitehall St-South Ferry_0
778,R28,N,Court St,40.6941,-73.991777,R28_N,Court St_0
779,R29,N,Jay St-MetroTech,40.69218,-73.985942,R29_N,Jay St-MetroTech_0
780,R30,N,DeKalb Av,40.690635,-73.981824,R30_N,DeKalb Av_0
781,R31,N,Atlantic Av-Barclays Ctr,40.683666,-73.97881,R31_N,Atlantic Av-Barclays Ctr_0
782,R32,N,Union St,40.677316,-73.98311,R32_N,Union St_0
783,R33,N,4 Av-9 St,40.670847,-73.988302,R33_N,4 Av-9 St_0
784,R34,N,Prospect Av,40.665414,-73.992872,R34_N,Prospect Av_1
785,R35,N,25 St,40.660397,-73.998091,R35_N,25 St_0
786,R36,N,36 St,40.655144,-74.003549,R36_N,36 St_0
787,R39,N,45 St,40.648939,-74.010006,R39_N,45 St_0
788,R40,N,53 St,40.645069,-74.014034,R40_N,53 St_0
789,R41,N,59 St,40.641362,-74.017881,R41_N,59 St_1
790,B08,Q,Lexington Av/63 St,40.764629,-73.966113,B08_Q,Lexington Av/63 St_0
791,D24,Q,Atlantic Av-Barclays Ctr,40.68446,-73.97689,D24_Q,Atlantic Av-Barclays Ctr_0
792,D25,Q,7 Av,40.67705,-73.972367,D25_Q,7 Av_1
793,D26,Q,Prospect Park,40.661614,-73.962246,D26_Q,Prospect Park_0
794,D27,Q,Parkside Av,40.655292,-73.961495,D27_Q,Parkside Av_0
795,D28,Q,Church Av,40.650527,-73.962982,D28_Q,Church Av_1
796,D29,Q,Beverley Rd,40.644031,-73.964492,D29_Q,Beverley Rd_0
797,D30,Q,Cortelyou Rd,40.640927,-73.963891,D30_Q,Cortelyou Rd_0
798,D31,Q,Newkirk Plaza,40.635082,-73.962793,D31_Q,Newkirk Plaza_0
799,D32,Q,Avenue H,40.62927,-73.961639,D32_Q,Avenue H_0
800,D33,Q,Avenue J,40.625039,-73.960803,D33_Q,Avenue J_0
801,D34,Q,Avenue M,40.617618,-73.959399,D34_Q,Avenue M_0
802,D35,Q,Kings Hwy,40.60867,-73.957734,D35_Q,Kings Hwy_0
803,D37,Q,Avenue U,40.5993,-73.955929,D37_Q,Avenue U_0
804,D38,Q,Neck Rd,40.595246,-73.955161,D38_Q,Neck Rd_0
805,D39,Q,Sheepshead Bay,40.586896,-73.954155,D39_Q,Sheepshead Bay_0
806,D40,Q,Brighton Beach,40.577621,-73.961376,D40_Q,Brighton Beach_0
807,D41,Q,Ocean Pkwy,40.576312,-73.968501,D41_Q,Ocean Pkwy_0
808,D42,Q,W 8 St-NY Aquarium,40.576127,-73.975939,D42_Q,W 8 St-NY Aquarium_0
809,D43,Q,Coney Island-Stillwell Av,40.577422,-73.981233,D43_Q,Coney Island-Stillwell Av_0
810,Q01,Q,Canal St,40.718383,-74.00046,Q01_Q,Canal St_0
811,Q03,Q,72 St,40.768799,-73.958424,Q03_Q,72 St_2
812,Q04,Q,86 St,40.777891,-73.951787,Q04_Q,86 St_4
813,Q05,Q,96 St,40.784318,-73.947152,Q05_Q,96 St_3
814,R14,Q,57 St-7 Av,40.764664,-73.980658,R14_Q,57 St-7 Av_0
815,R15,Q,49 St,40.759901,-73.984139,R15_Q,49 St_0
816,R16,Q,Times Sq-42 St,40.754672,-73.986754,R16_Q,Times Sq-42 St_0
817,R17,Q,34 St-Herald Sq,40.749567,-73.98795,R17_Q,34 St-Herald Sq_0
818,R18,Q,28 St,40.745494,-73.988691,R18_Q,28 St_2
819,R19,Q,23 St,40.741303,-73.989344,R19_Q,23 St_4
820,R20,Q,14 St-Union Sq,40.735736,-73.990568,R20_Q,14 St-Union Sq_0
821,R21,Q,8 St-NYU,40.730328,-73.992629,R21_Q,8 St-NYU_0
822,R22,Q,Prince St,40.724329,-73.997702,R22_Q,Prince St_0
823,R30,Q,DeKalb Av,40.690635,-73.981824,R30_Q,DeKalb Av_0
824,B08,R,Lexington Av/63 St,40.764629,-73.966113,B08_R,Lexington Av/63 St_0
825,G08,R,Forest Hills-71 Av,40.721691,-73.844521,G08_R,Forest Hills-71 Av_0
826,G09,R,67 Av,40.726523,-73.852719,G09_R,67 Av_0
827,G10,R,63 Dr-Rego Park,40.729846,-73.861604,G10_R,63 Dr-Rego Park_0
828,G11,R,Woodhaven Blvd,40.733106,-73.869229,G11_R,Woodhaven Blvd_0
829,G12,R,Grand Av-Newtown,40.737015,-73.877223,G12_R,Grand Av-Newtown_0
830,G13,R,Elmhurst Av,40.742454,-73.882017,G13_R,Elmhurst Av_0
831,G14,R,Jackson Hts-Roosevelt Av,40.746644,-73.891338,G14_R,Jackson Hts-Roosevelt Av_0
832,G15,R,65 St,40.749669,-73.898453,G15_R,65 St_0
833,G16,R,Northern Blvd,40.752885,-73.906006,G16_R,Northern Blvd_0
834,G18,R,46 St,40.756312,-73.913333,G18_R,46 St_0
835,G19,R,Steinway St,40.756879,-73.92074,G19_R,Steinway St_0
836,G20,R,36 St,40.752039,-73.928781,G20_R,36 St_1
837,G21,R,Queens Plaza,40.748973,-73.937243,G21_R,Queens Plaza_0
838,Q03,R,72 St,40.768799,-73.958424,Q03_R,72 St_2
839,Q04,R,86 St,40.777891,-73.951787,Q04_R,86 St_4
840,Q05,R,96 St,40.784318,-73.947152,Q05_R,96 St_3
841,R11,R,Lexington Av/59 St,40.76266,-73.967258,R11_R,Lexington Av/59 St_0
842,R13,R,5 Av/59 St,40.764811,-73.973347,R13_R,5 Av/59 St_0
843,R14,R,57 St-7 Av,40.764664,-73.980658,R14_R,57 St-7 Av_0
844,R15,R,49 St,40.759901,-73.984139,R15_R,49 St_0
845,R16,R,Times Sq-42 St,40.754672,-73.986754,R16_R,Times Sq-42 St_0
846,R17,R,34 St-Herald Sq,40.749567,-73.98795,R17_R,34 St-Herald Sq_0
847,R18,R,28 St,40.745494,-73.988691,R18_R,28 St_2
848,R19,R,23 St,40.741303,-73.989344,R19_R,23 St_4
849,R20,R,14 St-Union Sq,40.735736,-73.990568,R20_R,14 St-Union Sq_0
850,R21,R,8 St-NYU,40.730328,-73.992629,R21_R,8 St-NYU_0
851,R22,R,Prince St,40.724329,-73.997702,R22_R,Prince St_0
852,R23,R,Canal St,40.719527,-74.001775,R23_R,Canal St_0
853,R24,R,City Hall,40.713282,-74.006978,R24_R,City Hall_0
854,R25,R,Cortlandt St,40.710668,-74.011029,R25_R,Cortlandt St_0
855,R26,R,Rector St,40.70722,-74.013342,R26_R,Rector St_0
856,R27,R,Whitehall St-South Ferry,40.703087,-74.012994,R27_R,Whitehall St-South Ferry_0
857,R28,R,Court St,40.6941,-73.991777,R28_R,Court St_0
858,R29,R,Jay St-MetroTech,40.69218,-73.985942,R29_R,Jay St-MetroTech_0
859,R30,R,DeKalb Av,40.690635,-73.981824,R30_R,DeKalb Av_0
860,R31,R,Atlantic Av-Barclays Ctr,40.683666,-73.97881,R31_R,Atlantic Av-Barclays Ctr_0
861,R32,R,Union St,40.677316,-73.98311,R32_R,Union St_0
862,R33,R,4 Av-9 St,40.670847,-73.988302,R33_R,4 Av-9 St_0
863,R34,R,Prospect Av,40.665414,-73.992872,R34_R,Prospect Av_1
864,R35,R,25 St,40.660397,-73.998091,R35_R,25 St_0
865,R36,R,36 St,40.655144,-74.003549,R36_R,36 St_0
866,R39,R,45 St,40.648939,-74.010006,R39_R,45 St_0
867,R40,R,53 St,40.645069,-74.014034,R40_R,53 St_0
868,R41,R,59 St,40.641362,-74.017881,R41_R,59 St_1
869,R42,R,Bay Ridge Av,40.634967,-74.023377,R42_R,Bay Ridge Av_0
870,R43,R,77 St,40.629742,-74.02551,R43_R,77 St_1
871,R44,R,86 St,40.622687,-74.028398,R44_R,86 St_5
872,R45,R,Bay Ridge-95 St,40.616622,-74.030876,R45_R,Bay Ridge-95 St_0
873,S09,SI,Tottenville,40.512764,-74.251961,S09_SI,Tottenville_0
874,S11,SI,Arthur Kill,40.516578,-74.242096,S11_SI,Arthur Kill_0
875,S13,SI,Richmond Valley,40.519631,-74.229141,S13_SI,Richmond Valley_0
876,S14,SI,Pleasant Plains,40.52241,-74.217847,S14_SI,Pleasant Plains_0
877,S15,SI,Prince's Bay,40.525507,-74.200064,S15_SI,Prince's Bay_0
878,S16,SI,Huguenot,40.533674,-74.191794,S16_SI,Huguenot_0
879,S17,SI,Annadale,40.54046,-74.178217,S17_SI,Annadale_0
880,S18,SI,Eltingville,40.544601,-74.16457,S18_SI,Eltingville_0
881,S19,SI,Great Kills,40.551231,-74.151399,S19_SI,Great Kills_0
882,S20,SI,Bay Terrace,40.5564,-74.136907,S20_SI,Bay Terrace_0
883,S21,SI,Oakwood Heights,40.56511,-74.12632,S21_SI,Oakwood Heights_0
884,S22,SI,New Dorp,40.57348,-74.11721,S22_SI,New Dorp_0
885,S23,SI,Grant City,40.578965,-74.109704,S23_SI,Grant City_0
886,S24,SI,Jefferson Av,40.583591,-74.103338,S24_SI,Jefferson Av_0
887,S25,SI,Dongan Hills,40.588849,-74.09609,S25_SI,Dongan Hills_0
888,S26,SI,Old Town,40.596612,-74.087368,S26_SI,Old Town_0
889,S27,SI,Grasmere,40.603117,-74.084087,S27_SI,Grasmere_0
890,S28,SI,Clifton,40.621319,-74.071402,S28_SI,Clifton_0
891,S29,SI,Stapleton,40.627915,-74.075162,S29_SI,Stapleton_0
892,S30,SI,Tompkinsville,40.636949,-74.074835,S30_SI,Tompkinsville_0
893,S31,SI,St George,40.643748,-74.073643,S31_SI,St George_0
894,R01,W,Astoria-Ditmars Blvd,40.775036,-73.912034,R01_W,Astoria-Ditmars Blvd_0
895,R03,W,Astoria Blvd,40.770258,-73.917843,R03_W,Astoria Blvd_0
896,R04,W,30 Av,40.766779,-73.921479,R04_W,30 Av_0
897,R05,W,Broadway,40.76182,-73.925508,R05_W,Broadway_1
898,R06,W,36 Av,40.756804,-73.929575,R06_W,36 Av_0
899,R08,W,39 Av-Dutch Kills,40.752882,-73.932755,R08_W,39 Av-Dutch Kills_0
900,R09,W,Queensboro Plaza,40.750582,-73.940202,R09_W,Queensboro Plaza_0
901,R11,W,Lexington Av/59 St,40.76266,-73.967258,R11_W,Lexington Av/59 St_0
902,R13,W,5 Av/59 St,40.764811,-73.973347,R13_W,5 Av/59 St_0
903,R14,W,57 St-7 Av,40.764664,-73.980658,R14_W,57 St-7 Av_0
904,R15,W,49 St,40.759901,-73.984139,R15_W,49 St_0
905,R16,W,Times Sq-42 St,40.754672,-73.986754,R16_W,Times Sq-42 St_0
906,R17,W,34 St-Herald Sq,40.749567,-73.98795,R17_W,34 St-Herald Sq_0
907,R18,W,28 St,40.745494,-73.988691,R18_W,28 St_2
908,R19,W,23 St,40.741303,-73.989344,R19_W,23 St_4
909,R20,W,14 St-Union Sq,40.735736,-73.990568,R20_W,14 St-Union Sq_0
910,R21,W,8 St-NYU,40.730328,-73.992629,R21_W,8 St-NYU_0
911,R22,W,Prince St,40.724329,-73.997702,R22_W,Prince St_0
912,R23,W,Canal St,40.719527,-74.001775,R23_W,Canal St_0
913,R24,W,City Hall,40.713282,-74.006978,R24_W,City Hall_0
914,R25,W,Cortlandt St,40.710668,-74.011029,R25_W,Cortlandt St_0
915,R26,W,Rector St,40.70722,-74.013342,R26_W,Rector St_0
916,R27,W,Whitehall St-South Ferry,40.703087,-74.012994,R27_W,Whitehall St-South Ferry_0
